author;location;citation;latitude;longitude;icon
Huotari Simo, Pylkkänen Tuomas,...and Hämäläinen Keijo;European Synchrotron Radiation Facility, France;Huotari, S., Pylkkänen, T., & Verbeni, R. et al.(2011, jul). Direct tomography with chemical-bond contrast. Nat. Mater., 489--493, Retrieved from: http://dx.doi.org/10.1038/nmat3031;45.208777777778;5.6900555555556;star
Lavagnino Zeno, Zanacchi Francesca Cella,...and Diaspro Alberto;Department of Physics, University of Genoa, Italy;Lavagnino, Z., Zanacchi, F., & Ronzitti, E. et al.(2013). Two-photon excitation selective plane illumination microscopy ({2PE-SPIM}) of highly scattering samples: characterization and application. Opt. Express, 5998--6008, Retrieved from: http://dx.doi.org/10.1364/OE.21.005998;44.4150065;8.9257537;star
Leischner Ulrich, Schierloh Anja,...and Dodt Hans-Ulrich;Max Planck Institute of Psychiatry, Munich, Germany;Leischner, U., Schierloh, A., & Zieglgänsberger, W. et al.(2010). Formalin-induced fluorescence reveals cell shape and morphology in biological tissue samples. PLoS One, e10391, 10.1371/journal.pone.0010391. Retrieved from: http://dx.doi.org/10.1371/journal.pone.0010391;48.1399;11.4701;star
Taormina Michael J, Jemielita Matthew,...and Guillemin Karen;Department of Physics, University of Oregon, Eugene, USA;Taormina, M., Jemielita, M., & Stephens, W. et al.(2012, aug). Investigating bacterial-animal symbioses with light sheet microscopy. Biol. Bull., 7--20, Retrieved from: http://www.ncbi.nlm.nih.gov/pubmed/22983029;44.0455;-123.0743;star
Ritter Jörg G, Spille Jan-Hendrik,...and Kubitscheck Ulrich;Institute of Physical and Theoretical Chemistry, Rheinische Friedrich-Wilhelms Universität Bonn, Germany;Ritter, J., Spille, J., & Kaminski, T. et al.(2010). A cylindrical zoom lens unit for adjustable optical sectioning in light sheet microscopy. Biomed. Opt. Express, 185--193, 10.1364/BOE.2.000185. Retrieved from: http://dx.doi.org/10.1364/BOE.2.000185;50.727055;7.087376;star
Palayret Matthieu, Armes Helen,...and Lee Steven F;Department of Chemistry, University of Cambridge, Lensfield Road, Cambridge, United Kingdom;Palayret, M., Armes, H., & Basu, S. et al.(2015). PLoS One, e0125438, 10.1371/journal.pone.0125438. Retrieved from: http://dx.doi.org/10.1371/journal.pone.0125438;52.1981;0.1256;star
Silvestri Ludovico, Allegra Mascaro Anna Letizia,...and Pavone Francesco Saverio;European Laboratory for Non-Linear Spectroscopy, University of Florence, Italy;Silvestri, L., Allegra Mascaro, A., & Costantini, I. et al.(2014). Correlative two-photon and light sheet microscopy. Methods, 268--272, Retrieved from: http://dx.doi.org/10.1016/j.ymeth.2013.06.013;43.846144;11.374478;star
Reynaud Emmanuel G, Tomancak Pavel;School of Biology & Environmental Science, University College Dublin, Ireland;Reynaud, E., & Tomancak, P.(2010, aug). Meeting report: first light sheet based fluorescence microscopy workshop. Biotechnol. J., 798--804, Retrieved from: http://dx.doi.org/10.1002/biot.201000177;53.30762;-6.22209;star
Sena Giovanni, Frentz Zak,...and Leibler Stanislas;Department of Biology, Center for Genomics and Systems Biology, New York University, New York, New York, United States of America;Sena, G., Frentz, Z., & Birnbaum, K. et al.(2011). Quantitation of cellular dynamics in growing Arabidopsis roots with light sheet microscopy. PLoS One, e21303, 10.1371/journal.pone.0021303. Retrieved from: http://dx.doi.org/10.1371/journal.pone.0021303;40.652939;-73.870182;star
Dean Kevin M, Roudot Philippe,...and Fiolka Reto;Department of Cell Biology, University of Texas Southwestern Medical Center, Dallas, Texas;Dean, K., Roudot, P., & Welf, E. et al.(2015). Deconvolution-free Subcellular Imaging with Axially Swept Light Sheet Microscopy. Biophys. J., 2807--2815, 10.1016/j.bpj.2015.05.013. Retrieved from: http://dx.doi.org/10.1016/j.bpj.2015.05.013;32.8126;-96.8384;star
Bagnat Michel, Navis Adam,...and Stainier Didier Y R;Department of Cell Biology, Duke University School of Medicine, Durham, USA;Bagnat, M., Navis, A., & Herbstreith, S. et al.(2010). Cse1l is a negative regulator of {CFTR-dependent} fluid secretion. Curr. Biol., 1840--1845, 10.1016/j.cub.2010.09.012. Retrieved from: http://dx.doi.org/10.1016/j.cub.2010.09.012;36.0007;-78.9403;star
Wang Hao;Department of Botany, College of Life Sciences, South China Agricultural University, China;Wang, H.(2016). Visualizing Plant Cells in a Brand New Way. Mol. Plant, 633--635, Retrieved from: http://dx.doi.org/10.1016/j.molp.2016.02.006;35.486703;101.901875;star
Royer Loic A, Weigert Martin,...and Myers Eugene W; Dresden, Germany;Royer, L., Weigert, M., & Günther, U. et al.(2015, jun). {ClearVolume}: open-source live {3D} visualization for light-sheet microscopy. Nat. Methods, 480--481, Retrieved from: http://dx.doi.org/10.1038/nmeth.3372;51.03333;13.73333;star
Buytaert Jan A N, Descamps Emilie,...and Dirckx Joris J J;Laboratory of Biomedical Physics, University of Antwerp, Belgium;Buytaert, J., Descamps, E., & Adriaens, D. et al.(2012). The {OPFOS} Microscopy Family: {High-Resolution} Optical Sectioning of Biomedical Specimens. Anat. Res. Int., 206238, 10.1155/2012/206238. Retrieved from: http://dx.doi.org/10.1155/2012/206238;51.248304;4.75729;star
Li Yu, Hu Ying, Cang Hu;Waitt Advanced Biophotonics Center, Salk Institute for Biological Studies, La Jolla, United States;Li, Y., Hu, Y., & Cang, H.(2013). Light sheet microscopy for tracking single molecules on the apical surface of living cells. J. Phys. Chem. B, 15503--15511, Retrieved from: http://dx.doi.org/10.1021/jp405380g;32.887151;-117.246212;star
Bruns Thomas, Schickinger Sarah, Schneckenburger Herbert;Institute of Applied Research, Aalen University;Bruns, T., Schickinger, S., & Schneckenburger, H.(2014). Single plane illumination module and micro-capillary approach for a wide-field microscope. J. Vis. Exp., e51993, Retrieved from: http://dx.doi.org/10.3791/51993;48.83722;10.09361;star
Niedworok Christian J, Schwarz Inna,...and Schwarz Martin K;Department of Molecular Neuroscience, Max Planck Institute for Medical Research, Germany;Niedworok, C., Schwarz, I., & Ledderose, J. et al.(2012). Charting monosynaptic connectivity maps by two-color light-sheet fluorescence microscopy. Cell Rep., 1375--1386, Retrieved from: http://dx.doi.org/10.1016/j.celrep.2012.10.008;51.133481;10.018343;star
Spille Jan-Hendrik, Kaminski Tim,...and Kubitscheck Ulrich;Institute of Physical and Theoretical Chemistry, Rheinische Friedrich-Wilhelms Universität Bonn, Germany;Spille, J., Kaminski, T., & Königshoven, H. et al.(2012). Dynamic three-dimensional tracking of single fluorescent nanoparticles deep inside living tissue. Opt. Express, 19697--19707, Retrieved from: http://dx.doi.org/10.1364/OE.20.019697;50.727055;7.087376;star
Bosse Jens B, Hogue Ian B,...and Enquist Lynn W;Department of Molecular Biology, Princeton University, Princeton;Bosse, J., Hogue, I., & Feric, M. et al.(2015). Remodeling nuclear architecture allows efficient transport of herpesvirus capsids by diffusion. Proc. Natl. Acad. Sci. U. S. A., E5725--33, 10.1073/pnas.1513876112. Retrieved from: http://dx.doi.org/10.1073/pnas.1513876112;51.523386;-0.132909;star
Guan Zeyi, Lee Juhyun,...and Fei Peng;Mechanical and Aerospace Engineering, University of California, Los Angeles, Los Angeles, USA;Guan, Z., Lee, J., & Jiang, H. et al.(2016). Compact plane illumination plugin device to enable light sheet fluorescence imaging of multi-cellular organisms on an inverted wide-field microscope. Biomed. Opt. Express, 194--208, 10.1364/BOE.7.000194. Retrieved from: http://dx.doi.org/10.1364/BOE.7.000194;34.494944444444;-82.709027777778;star
Yang Zhengyi, Haslehurst Peter,...and Dholakia Kishan;SUPA, School of Physics &Astronomy, University of St Andrews, St Andrews, United Kingdom;Yang, Z., Haslehurst, P., & Scott, S. et al.(2016). A compact light-sheet microscope for the study of the mammalian central nervous system. Sci. Rep., 26317, Retrieved from: http://dx.doi.org/10.1038/srep26317;56.3403;-2.7954;star
Huisken Jan, Stainier Didier Y R;Department of Biochemistry and Biophysics, University of California San Francisco, San Francisco, USA;Huisken, J., & Stainier, D.(2007). Even fluorescence excitation by multidirectional selective plane illumination microscopy ({mSPIM}). Opt. Lett., 2608--2610, Retrieved from: http://www.ncbi.nlm.nih.gov/pubmed/17767321;37.763319444444;-122.45853888889;star
Mertz Jerome;Department of Biomedical Engineering, Boston University, Boston, Massachusetts, USA;Mertz, J.(2011). Optical sectioning microscopy with planar or structured illumination. Nat. Methods, 811--819, Retrieved from: http://dx.doi.org/10.1038/nmeth.1709;42.345345;-71.099965;star
Slattery Rebecca A, Grennan Aleel K,...and Ort Donald R;Department of Plant Biology, University of Illinois at Urbana-Champaign, Urbana, USA Carl R;Slattery, R., Grennan, A., & Sivaguru, M. et al.(2016). Light sheet microscopy reveals more gradual light attenuation in light-green versus dark-green soybean leaves. J. Exp. Bot., Retrieved from: http://dx.doi.org/10.1093/jxb/erw246;40.1163;-88.22632;star
Zhao Teng, Lau Sze Cheung,...and Loy M M T;Department of Physics, The Hong Kong University of Science and Technology, Clear Water Bay, Kowloon, Hong Kong, China;Zhao, T., Lau, S., & Wang, Y. et al.(2016). Multicolor {4D} Fluorescence Microscopy using Ultrathin Bessel Light Sheets. Sci. Rep., 26159, Retrieved from: http://dx.doi.org/10.1038/srep26159;22.25959;114.164054;star
Mertz Jerome, Kim Jinhyun;Boston University, Department of Biomedical Engineering, Boston, USA;Mertz, J., & Kim, J.(2010, jan). Scanning light-sheet microscopy in the whole mouse brain with {HiLo} background rejection. J. Biomed. Opt., 016027, 10.1117/1.3324890. Retrieved from: http://dx.doi.org/10.1117/1.3324890;42.356486;-71.059357;star
Wohland Thorsten,...and Stelzer Ernst H K;Department of Chemistry, National University of Singapore, Singapore;Wohland, T., Shi, X., & Sankaran, J. et al.(2010). Single plane illumination fluorescence correlation spectroscopy ({SPIM-FCS}) probes inhomogeneous three-dimensional environments. Opt. Express, 10627--10641, Retrieved from: http://dx.doi.org/10.1364/OE.18.010627;1.351616;103.808053;star
Turaga Diwakar, Holy Timothy E;Department of Anatomy and Neurobiology, Washington University School of Medicine, St;Turaga, D., & Holy, T.(2010). Image-based calibration of a deformable mirror in wide-field microscopy. Appl. Opt., 2030--2040, 10.1364/AO.49.002030. Retrieved from: http://dx.doi.org/10.1364/AO.49.002030;38.637;-90.2646;star
de Luis Balaguer Maria Angels, Ramos-Pezzotti Marina,...and Sozzani Rosangela;Plant and Microbial Biology Department, North Carolina State University, Raleigh, USA;de Luis Balaguer, M., Ramos-Pezzotti, M., & Rahhal, M. et al.(2016). Multi-sample Arabidopsis Growth and Imaging Chamber ({MAGIC}) for long term imaging in the {ZEISS} Lightsheet Z.1. Dev. Biol., Retrieved from: http://dx.doi.org/10.1016/j.ydbio.2016.05.029;35.750401;-78.645846;star
Tokunaga Makio, Imamoto Naoko, Sakata-Sogawa Kumiko;Biological Macromolecules Laboratory, National Institute of Genetics, Mishima, Japan;Tokunaga, M., Imamoto, N., & Sakata-Sogawa, K.(2008, feb). Highly inclined thin illumination enables clear single-molecule imaging in cells. Nat. Methods, 159--161, Retrieved from: http://dx.doi.org/10.1038/nmeth1171;34.775;131.14166667;star
Brede Christian, Friedrich Mike,...and Beilhack Andreas;Department of Medicine II, Würzburg University Hospital, Würzburg, Germany;Brede, C., Friedrich, M., & Jord\'{a}n-Garrote, A. et al.(2012, dec). Mapping immune processes in intact tissues at cellular resolution. J. Clin. Invest., 4439--4446, 10.1172/JCI65100. Retrieved from: http://dx.doi.org/10.1172/JCI65100;49.79444;9.92944;star
Bruns T, Schickinger S, Schneckenburger H;Aalen University, Institute of Applied Research, Beethovenstr;Bruns, T., Schickinger, S., & Schneckenburger, H.(2015, oct). Sample holder for axial rotation of specimens in {3D} microscopy. J. Microsc., 30--36, Retrieved from: http://dx.doi.org/10.1111/jmi.12263;50.060219;13.830871;star
Jemielita Matthew, Taormina Michael J,...and Parthasarathy Raghuveer;Department of Physics, University of Oregon, Eugene, Oregon, USA;Jemielita, M., Taormina, M., & Burns, A. et al.(2014). Spatial and temporal features of the growth of a bacterial species colonizing the zebrafish gut. MBio, 10.1128/mBio.01751-14. Retrieved from: http://dx.doi.org/10.1128/mBio.01751-14;44.0455;-123.0743;star
Scherz Paul J, Huisken Jan,...and Stainier Didier Y R;Department of Biochemistry and Biophysics, Cardiovascular Research Institute, University of California, San Francisco, San Francisco, USA;Scherz, P., Huisken, J., & Sahai-Hernandez, P. et al.(2008, mar). High-speed imaging of developing heart valves reveals interplay of morphogenesis and function. Development, 1179--1187, Retrieved from: http://dx.doi.org/10.1242/dev.010694;37.763319444444;-122.45853888889;star
Saghafi Saiedeh, Becker Klaus,...and Dodt Hans-Ulrich;Vienna University of Technology, Dept;Saghafi, S., Becker, K., & Hahn, C. et al.(2014, jan). 3D-ultramicroscopy utilizing aspheric optics. J. Biophotonics, 117--125, Retrieved from: http://dx.doi.org/10.1002/jbio.201300048;48.198888888889;16.37;star
Höckendorf Burkhard, Thumberger Thomas, Wittbrodt Joachim;Centre for Organismal Studies, Heidelberg University, Germany;Höckendorf, B., Thumberger, T., & Wittbrodt, J.(2012). Quantitative analysis of embryogenesis: a perspective for light sheet microscopy. Dev. Cell, 1111--1120, Retrieved from: http://dx.doi.org/10.1016/j.devcel.2012.10.008;49.410277777778;8.7063888888889;star
Hofman R, Segenhout J M, Wit H P;Department of Otorhinolaryngology, University Medical Center Groningen, P;Hofman, R., Segenhout, J., & Wit, H.(2009, feb). Three-dimensional reconstruction of the guinea pig inner ear, comparison of {OPFOS} and light microscopy, applications of {3D} reconstruction. J. Microsc., 251--257, Retrieved from: http://dx.doi.org/10.1111/j.1365-2818.2009.03115.x;53.252226;6.720211;star
Buytaert Jan A N, Dirckx Joris J J;Laboratory of BioMedical Physics, University of Antwerp, Belgium;Buytaert, J., & Dirckx, J.(2009). Tomographic imaging of macroscopic biomedical objects in high resolution and three dimensions using orthogonal-plane fluorescence optical sectioning. Appl. Opt., 941--948, Retrieved from: http://www.ncbi.nlm.nih.gov/pubmed/19209207;51.248304;4.75729;star
Park Ok Kyu, Kwak Jina,...and Kee Yun;Korea Basic Science Institute Chuncheon Center, Korea;Park, O., Kwak, J., & Jung, Y. et al.(2015). {3D} {Light-Sheet} Fluorescence Microscopy of Cranial Neurons and Vasculature during Zebrafish Embryogenesis. Mol. Cells, 975--981, 10.14348/molcells.2015.0160. Retrieved from: http://dx.doi.org/10.14348/molcells.2015.0160;23.237933;82.388909;star
Preibisch Stephan, Amat Fernand...and Tomancak Pavel; Dresden, Germany;Preibisch, S., Amat, F., & Stamataki, E. et al.(2014, jun). Efficient Bayesian-based multiview deconvolution. Nat. Methods, 645--648, 10.1038/nmeth.2929. Retrieved from: http://dx.doi.org/10.1038/nmeth.2929;51.03333;13.73333;star
Lenard Anna, Daetwyler Stephan,...and Affolter Markus;Biozentrum der Universität Basel, Basel, Switzerland;Lenard, A., Daetwyler, S., & Betz, C. et al.(2015, apr). Endothelial cell self-fusion during vascular pruning. PLoS Biol., e1002126, 10.1371/journal.pbio.1002126. Retrieved from: http://dx.doi.org/10.1371/journal.pbio.1002126;47.55858;7.5836;star
Greiss Ferdinand,...and Braun Dieter;System Biophysics, Department of Physics, Ludwig Maximilians University, Munich, Germany;Greiss, F., Deligiannaki, M., & Jung, C. et al.(2016). {Single-Molecule} Imaging in Living Drosophila Embryos with Reflected {Light-Sheet} Microscopy. Biophys. J., 939--946, Retrieved from: http://dx.doi.org/10.1016/j.bpj.2015.12.035;51.133481;10.018343;star
Wilding Dean, Pozzi Paolo,...and Verhaegen Michel;Centre for Plant Integrative Biology, University of Nottingham, United Kingdom;Wilding, D., Pozzi, P., & Soloviev, O. et al.(2013). Lateral root morphogenesis is dependent on the mechanical properties of the overlaying tissues. Proc. Natl. Acad. Sci. U. S. A., 5229--5234, 10.1073/pnas.1210807110. Retrieved from: http://dx.doi.org/10.1073/pnas.1210807110;52.939;-1.197;star
Amat Fernando,...and Keller Philipp J;Howard Hughes Medical Institute, Janelia Farm Research Campus, Ashburn, Virginia, USA;Amat, F., Lemon, W., & Mossing, D. et al.(2014, sep). Fast, accurate reconstruction of cell lineages from large-scale fluorescence microscopy data. Nat. Methods, 951--958, Retrieved from: http://dx.doi.org/10.1038/nmeth.3036;39.0437;-77.4875;star
Turaga Diwakar, Holy Timothy E;Department of Anatomy and Neurobiology, Washington University in St;Turaga, D., & Holy, T.(2008). Miniaturization and defocus correction for objective-coupled planar illumination microscopy. Opt. Lett., 2302--2304, Retrieved from: http://www.ncbi.nlm.nih.gov/pubmed/18923603;23.122237;77.475138;star
Saghafi Saiedeh, Becker Klaus,...and Dodt Hans-Ulrich;Vienna University of Technology, FKE, Dept;Saghafi, S., Becker, K., & Jährling, N. et al.(2010, oct). Image enhancement in ultramicroscopy by improved laser light sheets. J. Biophotonics, 686--695, Retrieved from: http://dx.doi.org/10.1002/jbio.201000047;48.198888888889;16.37;star
Tomer Raju, Khairy Khaled, Keller Philipp J;Janelia Farm Research Campus, Howard Hughes Medical Institute, Ashburn, VA, USA;Tomer, R., Khairy, K., & Keller, P.(2013). Light sheet microscopy in cell biology. Methods Mol. Biol., 123--137, Retrieved from: http://dx.doi.org/10.1007/978-1-62703-056-4_7;39.0437;-77.4875;star
Keller Philipp J, Ahrens Misha B;Howard Hughes Medical Institute, Janelia Research Campus, Ashburn, USA;Keller, P., & Ahrens, M.(2015). Visualizing whole-brain activity and development at the single-cell level using light-sheet microscopy. Neuron, 462--483, Retrieved from: http://dx.doi.org/10.1016/j.neuron.2014.12.039;39.0437;-77.4875;star
Stelzer Ernst H K;Buchmann Institute for Molecular Life Sciences, IZN), Goethe Universität Frankfurt am Main, Frankfurt am Main, Germany;Stelzer, E.(2015, jan). Light-sheet fluorescence microscopy for quantitative biology. Nat. Methods, 23--26, Retrieved from: http://dx.doi.org/10.1038/nmeth.3219;50.119444444444;8.6513888888889;star
Kobitski Andrei Y, Otte Jens C,...and Nienhaus G Ulrich; Karlsruhe Institute of Technology, Wolfgang-Gaede-Str;Kobitski, A., Otte, J., & Takamiya, M. et al.(2015). An ensemble-averaged, cell density-based digital model of zebrafish embryo development derived from light-sheet microscopy data with single-cell resolution. Sci. Rep., 8601, Retrieved from: http://dx.doi.org/10.1038/srep08601;-39.33708;174.28382;star
Jährling Nina, Becker Klaus, Dodt Hans-Ulrich;Vienna University of Technology;Jährling, N., Becker, K., & Dodt, H.(2009, oct). 3D-reconstruction of blood vessels by ultramicroscopy. Organogenesis, 227--230, Retrieved from: http://www.ncbi.nlm.nih.gov/pubmed/20539742;48.198888888889;16.37;star
von Wangenheim Daniel, Fangerau Jens,...and Maizel Alexis;Buchmann Institute for Molecular Life Sciences, Goethe Universität Frankfurt am Main, Germany;von Wangenheim, D., Fangerau, J., & Schmitz, A. et al.(2016). Rules and {Self-Organizing} Properties of Post-embryonic Plant Organ Cell Division Patterns. Curr. Biol., 439--449, Retrieved from: http://dx.doi.org/10.1016/j.cub.2015.12.047;50.119444444444;8.6513888888889;star
Costa Alex, Cand...and Bassi Andrea;Dipartimento di Bioscienze, Università degli studi di Milano, Milano, Italy;Costa, A., Candeo, A., & Fieramonti, L. et al.(2013). Calcium dynamics in root cells of Arabidopsis thaliana visualized with selective plane illumination microscopy. PLoS One, e75646, 10.1371/journal.pone.0075646. Retrieved from: http://dx.doi.org/10.1371/journal.pone.0075646;45.460988888889;9.1945916666667;star
Ertürk Ali, Becker Klaus,...and Dodt Hans-Ulrich;Department of Neuroscience, Genentech, South San Francisco, California, USA;Ertürk, A., Becker, K., & Jährling, N. et al.(2012, nov). Three-dimensional imaging of solvent-cleared organs using {3DISCO}. Nat. Protoc., 1983--1995, Retrieved from: http://dx.doi.org/10.1038/nprot.2012.119;37.673705;-122.464224;star
Taylor Jonathan M;School of Physics and Astronomy, University of Glasgow Glasgow, UK;Taylor, J.(2014). Optically gated beating-heart imaging. Front. Physiol., 481, 10.3389/fphys.2014.00481. Retrieved from: http://dx.doi.org/10.3389/fphys.2014.00481;55.87;-4.27;star
Ahrens Misha B, Orger Michael B,...and Keller Philipp J;Howard Hughes Medical Institute, Janelia Farm Research Campus, Ashburn, Virginia, USA;Ahrens, M., Orger, M., & Robson, D. et al.(2013, may). Whole-brain functional imaging at cellular resolution using light-sheet microscopy. Nat. Methods, 413--420, Retrieved from: http://dx.doi.org/10.1038/nmeth.2434;39.0437;-77.4875;star
Dunsby C;Photonics Group, Department of Physics, Imperial College London, South Kensington Campus, London, UK;Dunsby, C.(2008). Optically sectioned imaging by oblique plane microscopy. Opt. Express, 20306--20316, Retrieved from: http://www.ncbi.nlm.nih.gov/pubmed/19065169;51.498308;-0.176882;star
Buytaert Jan A N, Dirckx Joris J J;University of Antwerp, Laboratory of Biomedical Physics, Department of Physics, Belgium;Buytaert, J., & Dirckx, J.(2007, jan). Design and quantitative resolution measurements of an optical virtual sectioning three-dimensional imaging technique for biomedical specimens, featuring two-micrometer slicing resolution. J. Biomed. Opt., 014039, Retrieved from: http://dx.doi.org/10.1117/1.2671712;51.248304;4.75729;star
Planchon Thomas A, Gao Liang,...and Betzig Eric;Janelia Farm Research Campus, Howard Hughes Medical Institute, Ashburn, Virginia, USA;Planchon, T., Gao, L., & Milkie, D. et al.(2011, may). Rapid three-dimensional isotropic imaging of living cells using Bessel beam plane illumination. Nat. Methods, 417--423, 10.1038/nmeth.1586. Retrieved from: http://dx.doi.org/10.1038/nmeth.1586;39.0437;-77.4875;star
Cella Zanacchi Francesca, Lavagnino Zeno,...and Diaspro Alberto;Department of Nanophysics, Istituto Italiano di Tecnologia, Genova, Italy;Cella Zanacchi, F., Lavagnino, Z., & Faretta, M. et al.(2013). Light-sheet confined super-resolution using two-photon photoactivation. PLoS One, e67667, 10.1371/journal.pone.0067667. Retrieved from: http://dx.doi.org/10.1371/journal.pone.0067667;44.400306;9.030762;star
Mohan Kavya, Purnapatra Subhajit B, Mondal Partha Pratim;Department of Instrumentation and Applied Physics, Indian Institute of Science, Bangalore, India;Mohan, K., Purnapatra, S., & Mondal, P.(2014). Three dimensional fluorescence imaging using multiple light-sheet microscopy. PLoS One, e96551, 10.1371/journal.pone.0096551. Retrieved from: http://dx.doi.org/10.1371/journal.pone.0096551;12.96991;77.59796;star
Zhao Ming, Zhang Han,...and Peng Leilei;College of Optical Sciences, the University of Arizona;Zhao, M., Zhang, H., & Li, Y. et al.(2014). Cellular imaging of deep organ using two-photon Bessel light-sheet nonlinear structured illumination microscopy. Biomed. Opt. Express, 1296--1308, 10.1364/BOE.5.001296. Retrieved from: http://dx.doi.org/10.1364/BOE.5.001296;45.33;-75.82;star
Gao Liang, Zhu Liren,...and Wang Lihong V;Optical Imaging Laboratory, Department of Biomedical Engineering, Washington University, , St Louis, USA;Gao, L., Zhu, L., & Li, C. et al.(2014). Nonlinear light-sheet fluorescence microscopy by photobleaching imprinting. J. R. Soc. Interface, 20130851, 10.1098/rsif.2013.0851. Retrieved from: http://dx.doi.org/10.1098/rsif.2013.0851;47.283049;-120.760049;star
Dodt Hans-Ulrich, Leischner Ulrich,...and Becker Klaus;Max Planck Institute of Psychiatry, Kraepelinstr;Dodt, H., Leischner, U., & Schierloh, A. et al.(2007, apr). Ultramicroscopy: three-dimensional visualization of neuronal networks in the whole mouse brain. Nat. Methods, 331--336, Retrieved from: http://dx.doi.org/10.1038/nmeth1036;48.57333;7.75222;star
Reynaud Emmanuel G, Peychl Jan,...and Tomancak Pavel;Earth Institute, University College Dublin, Dublin, Ireland;Reynaud, E., Peychl, J., & Huisken, J. et al.(2015, jan). Guide to light-sheet microscopy for adventurous biologists. Nat. Methods, 30--34, Retrieved from: http://dx.doi.org/10.1038/nmeth.3222;53.30762;-6.22209;star
Voie A H, Burns D H, Spelman F A;Center for Bioengineering, University of Washington;Voie, A., Burns, D., & Spelman, F.(1993, jun). Orthogonal-plane fluorescence optical sectioning: three-dimensional imaging of macroscopic biological specimens. J. Microsc., 229--236, Retrieved from: http://www.ncbi.nlm.nih.gov/pubmed/8371260;47.82;-122.88;star
Breckwoldt Michael O, Bode Julia,...and Tews Björn;Neuroradiology Department, University Hospital Heidelberg, Heidelberg, Germany;Breckwoldt, M., Bode, J., & Kurz, F. et al.(2016). Correlated magnetic resonance imaging and ultramicroscopy ({MR-UM}) is a tool kit to assess the dynamics of glioma angiogenesis. Elife, 10.7554/eLife.11712. Retrieved from: http://dx.doi.org/10.7554/eLife.11712;49.410277777778;8.7063888888889;star
Temerinac-Ott Maja, Ronneberger Olaf,...and Burkhardt Hans;Chair of Pattern Recognition and Image Processing, Department of Computer Science, University of Freiburg, Freiburg, Germany;Temerinac-Ott, M., Ronneberger, O., & Ochs, P. et al.(2012, apr). Multiview deblurring for {3-D} images from light-sheet-based fluorescence microscopy. IEEE Trans. Image Process., 1863--1873, Retrieved from: http://dx.doi.org/10.1109/TIP.2011.2181528;53.82306;9.28444;star
Engelbrecht Christoph J, Voigt Fabian, Helmchen Fritjof;Department of Neurophysiology, Brain Research Institute, University of Zurich, Switzerland;Engelbrecht, C., Voigt, F., & Helmchen, F.(2010). Miniaturized selective plane illumination microscopy for high-contrast in vivo fluorescence imaging. Opt. Lett., 1413--1415, Retrieved from: http://dx.doi.org/10.1364/OL.35.001413;47.425474;8.650832;star
Tomer Raju, Lovett-Barron Matthew,...and Deisseroth Karl;Department of Bioengineering, Stanford University, Stanford, USA;Tomer, R., Lovett-Barron, M., & Kauvar, I. et al.(2015). {SPED} Light Sheet Microscopy: Fast Mapping of Biological System Structure and Function. Cell, 1796--1806, 10.1016/j.cell.2015.11.061. Retrieved from: http://dx.doi.org/10.1016/j.cell.2015.11.061;37.43;-122.17;star
Fu Qinyi, Martin Benjamin L,...and Gao Liang;Department of Chemistry, Stony Brook University, Stony Brook, USA;Fu, Q., Martin, B., & Matus, D. et al.(2016). Imaging multicellular specimens with real-time optimized tiling light-sheet selective plane illumination microscopy. Nat. Commun., 11088, Retrieved from: http://dx.doi.org/10.1038/ncomms11088;40.914224;-73.11623;star
Keller Philipp J, Ahrens Misha B, Freeman Jeremy;Janelia Research Campus, Howard Hughes Medical Institute, Ashburn, Virginia, USA;Keller, P., Ahrens, M., & Freeman, J.(2015, jan). Light-sheet imaging for systems neuroscience. Nat. Methods, 27--29, Retrieved from: http://dx.doi.org/10.1038/nmeth.3214;39.0437;-77.4875;star
Turaga Diwakar, Holy Timothy E;Dept;Turaga, D., & Holy, T.(2013). Aberrations and their correction in light-sheet microscopy: a low-dimensional parametrization. Biomed. Opt. Express, 1654--1661, 10.1364/BOE.4.001654. Retrieved from: http://dx.doi.org/10.1364/BOE.4.001654;39.8272;-75.1236;star
Loftus Andrew F, Noreng Sigrid,...and Parthasarathy Raghuveer;Department of Chemistry, The University of Oregon, Eugene, United States;Loftus, A., Noreng, S., & Hsieh, V. et al.(2013). Robust measurement of membrane bending moduli using light sheet fluorescence imaging of vesicle fluctuations. Langmuir, 14588--14594, Retrieved from: http://dx.doi.org/10.1021/la403837d;44.063478;-123.074581;star
Singh Anand Pratap,...and Thorsten;Department of Biological Sciences and NUS Centre for Bio-Imaging Sciences, National University of Singapore, Singapore;Singh, A., Krieger, J., & Buchholz, J. et al.(2013). The performance of {2D} array detectors for light sheet based fluorescence correlation spectroscopy. Opt. Express, 8652--8668, Retrieved from: http://dx.doi.org/10.1364/OE.21.008652;1.332652;103.848198;star
Cella Zanacchi Francesca, Lavagnino Zeno,...and Diaspro Alberto;Istituto Italiano di Tecnologia, Genova, Italia;Cella Zanacchi, F., Lavagnino, Z., & Perrone Donnorso, M. et al.(2011, dec). Live-cell {3D} super-resolution imaging in thick biological samples. Nat. Methods, 1047--1049, Retrieved from: http://dx.doi.org/10.1038/nmeth.1744;44.400306;9.030762;star
Stefaniuk Marzena, Gualda Emilio J,...and Kaczmarek Leszek;Nencki Institute, Poland;Stefaniuk, M., Gualda, E., & Pawlowska, M. et al.(2016). Light-sheet microscopy imaging of a whole cleared rat brain with {Thy1-GFP} transgene. Sci. Rep., 28209, 10.1038/srep28209. Retrieved from: http://dx.doi.org/10.1038/srep28209;52.12461;19.300636;star
Pauli Andrea, Norris Megan L,...ander F;Department of Molecular and Cellular Biology, Harvard University, Cambridge, USA;Pauli, A., Norris, M., & Valen, E. et al.(2014). Toddler: an embryonic signal that promotes cell movement via Apelin receptors. Science, 1248636, 10.1126/science.1248636. Retrieved from: http://dx.doi.org/10.1126/science.1248636;42.3751;-71.1056;star
Susaki Etsuo A, Tainaka Kazuki,...and Ueda Hiroki R;Department of Systems Pharmacology, The University of Tokyo, Tokyo, Japan;Susaki, E., Tainaka, K., & Perrin, D. et al.(2015, nov). Advanced {CUBIC} protocols for whole-brain and whole-body clearing and imaging. Nat. Protoc., 1709--1727, Retrieved from: http://dx.doi.org/10.1038/nprot.2015.085;35.68;139.77;star
Galland Remi,...and Sibarita Jean-Baptiste; University of Bordeaux, Bordeaux, France;Galland, R., Grenci, G., & Aravind, A. et al.(2015, jul). {3D} high- and super-resolution imaging using single-objective {SPIM}. Nat. Methods, 641--644, Retrieved from: http://dx.doi.org/10.1038/nmeth.3402;44.806944;-0.6;star
Lemon William C, Pulver Stefan R,...and Keller Philipp J;Howard Hughes Medical Institute, Janelia Research Campus, Ashburn, USA;Lemon, W., Pulver, S., & Höckendorf, B. et al.(2015). Whole-central nervous system functional imaging in larval Drosophila. Nat. Commun., 7924, Retrieved from: http://dx.doi.org/10.1038/ncomms8924;39.0437;-77.4875;star
Can A, Al-Kofahi O,...and Roysam B;Rensselaer Polytechnic Institute, Troy, U;Can, A., Al-Kofahi, O., & Lasek, S. et al.(2003, jul). Attenuation correction in confocal laser microscopes: a novel two-view approach. 67--79, Retrieved from: http://www.ncbi.nlm.nih.gov/pubmed/12839553;42.73;-73.6775;star
Ritter Jörg Gerhard, Veith Roman,...and Kubitscheck Ulrich;Institute of Physical and Theoretical Chemistry, Rheinische Friedrich-Wilhelms Universität, Bonn, Germany;Ritter, J., Veith, R., & Veenendaal, A. et al.(2010). Light sheet microscopy for single molecule tracking in living tissue. PLoS One, e11639, 10.1371/journal.pone.0011639. Retrieved from: http://dx.doi.org/10.1371/journal.pone.0011639;50.727055;7.087376;star
Bhattacharya Dipanjan, Singh Vijay Raj,...and Barbastathis George;Singapore-MIT Alliance for Research and Technology (SMART) Centre, Singapore;Bhattacharya, D., Singh, V., & Zhi, C. et al.(2012). Three dimensional {HiLo-based} structured illumination for a digital scanned laser sheet microscopy ({DSLM}) in thick tissue imaging. Opt. Express, 27337--27347, 10.1364/OE.20.027337. Retrieved from: http://dx.doi.org/10.1364/OE.20.027337;1.297475;103.780318;star
Trivedi Vikas, Truong Thai V,...and Fraser Scott E;Division of Biology and Biological Engineering, California Institute of Technology, Pasadena, USA ;Trivedi, V., Truong, T., & Trinh, L. et al.(2015). Dynamic structure and protein expression of the live embryonic heart captured by 2-photon light sheet microscopy and retrospective registration. Biomed. Opt. Express, 2056--2066, 10.1364/BOE.6.002056. Retrieved from: http://dx.doi.org/10.1364/BOE.6.002056;37.229564;-120.047533;star
Bradl J, Hausmann M,...and Cremer C;Institute of Applied Physics, University of Heidelberg, Germany;Bradl, J., Hausmann, M., & Ehemann, V. et al.(1992, oct). A tilting device for three-dimensional microscopy: application to in situ imaging of interphase cell nuclei. 47--57, Retrieved from: http://www.ncbi.nlm.nih.gov/pubmed/1447754;49.41222;8.71;star
Jemielita Matthew, Taormina Michael J,...and Parthasarathy Raghuveer;Department of Physics, Eugene, OR, USA;Jemielita, M., Taormina, M., & Delaurier, A. et al.(2013, dec). Comparing phototoxicity during the development of a zebrafish craniofacial bone using confocal and light sheet fluorescence microscopy techniques. J. Biophotonics, 920--928, 10.1002/jbio.201200144. Retrieved from: http://dx.doi.org/10.1002/jbio.201200144;44.0505;-123.0951;star
Ritter Jörg G, Veith Roman,...and Kubitscheck Ulrich;Institute of Physical and Theoretical Chemistry, Rheinische-Friedrich-Wilhelms Universität Bonn, Germany;Ritter, J., Veith, R., & Siebrasse, J. et al.(2008). High-contrast single-particle tracking by selective focal plane illumination microscopy. Opt. Express, 7142--7152, Retrieved from: http://www.ncbi.nlm.nih.gov/pubmed/18545417;50.727055;7.087376;star
Pampaloni Francesco, Ansari Nariman, Stelzer Ernst H K;Buchmann Institute for Molecular Life Sciences (BMLS), Goethe Universität Frankfurt am Main, Frankfurt am Main, Germany;Pampaloni, F., Ansari, N., & Stelzer, E.(2013, apr). High-resolution deep imaging of live cellular spheroids with light-sheet-based fluorescence microscopy. Cell Tissue Res., 161--177, Retrieved from: http://dx.doi.org/10.1007/s00441-013-1589-7;50.119444444444;8.6513888888889;star
Pampaloni Francesco, Reynaud Emmanuel G, Stelzer Ernst H K;Francesco Pampaloni, Emmanuel G;Pampaloni, F., Reynaud, E., & Stelzer, E.(2007, oct). The third dimension bridges the gap between cell culture and live tissue. Nat. Rev. Mol. Cell Biol., 839--845, Retrieved from: http://dx.doi.org/10.1038/nrm2236;42.1029;-87.806691;star
Hofman R, Segenhout J M,...and Wit H P;Department of Otorhinolaryngology, University Medical Center Groningen, Groningen, The Netherlands;Hofman, R., Segenhout, J., & Buytaert, J. et al.(2008, feb). Eur. Arch. Otorhinolaryngol., 153--157, 10.1007/s00405-007-0424-8. Retrieved from: http://dx.doi.org/10.1007/s00405-007-0424-8;53.252226;6.720211;star
Chittajallu Deepak R, Florian Stefan,...and Mitchison Timothy J;Department of Cell Biology, Harvard Medical School, Boston, Massachusetts, USA;Chittajallu, D., Florian, S., & Kohler, R. et al.(2015, jun). In vivo cell-cycle profiling in xenograft tumors by quantitative intravital microscopy. Nat. Methods, 577--585, 10.1038/nmeth.3363. Retrieved from: http://dx.doi.org/10.1038/nmeth.3363;42.335743;-71.105138;star
Schröter Tobias J, Johnson Shane B,...and Santi Peter A;Ilmenau University of Technology, Ilmenau, Germany;Schröter, T., Johnson, S., & John, K. et al.(2012). Scanning thin-sheet laser imaging microscopy ({sTSLIM}) with structured illumination and {HiLo} background rejection. Biomed. Opt. Express, 170--177, 10.1364/BOE.3.000170. Retrieved from: http://dx.doi.org/10.1364/BOE.3.000170;50.6817;10.939;star
Dean Kevin M, Roudot Philippe,...and Fiolka Reto;Lyda Hill Department of Bioinformatics, University of Texas Southwestern Medical Center, Dallas, Texas;Dean, K., Roudot, P., & Reis, C. et al.(2016). Diagonally Scanned {Light-Sheet} Microscopy for Fast Volumetric Imaging of Adherent Cells. Biophys. J., 1456--1465, Retrieved from: http://dx.doi.org/10.1016/j.bpj.2016.01.029;32.8126;-96.8384;star
Amat Fernando,...and Keller Philipp J;Howard Hughes Medical Institute, Janelia Research Campus, Ashburn, Virginia, USA;Amat, F., Höckendorf, B., & Wan, Y. et al.(2015, nov). Efficient processing and analysis of large-scale light-sheet microscopy data. Nat. Protoc., 1679--1696, Retrieved from: http://dx.doi.org/10.1038/nprot.2015.111;39.0437;-77.4875;star
Khairy Khaled, Lemon William C,...and Keller Philipp J;Howard Hughes Medical Institute, Janelia Farm Research Campus, Ashburn, VA, USA;Khairy, K., Lemon, W., & Amat, F. et al.(2015). Light sheet-based imaging and analysis of early embryogenesis in the fruit fly. Methods Mol. Biol., 79--97, Retrieved from: http://dx.doi.org/10.1007/978-1-4939-1164-6_6;39.0437;-77.4875;star
Bourgenot Cyril, Saunter Christopher D,...and Love Gordon D;Department of Physics & Biophysical Sciences Institute, Durham University, UK;Bourgenot, C., Saunter, C., & Taylor, J. et al.(2012). {3D} adaptive optics in a light sheet microscope. Opt. Express, 13252--13261, Retrieved from: http://dx.doi.org/10.1364/OE.20.013252;54.237933;-2.36967;star
Cutrale Francesco, Gratton Enrico;Laboratory for Fluorescence Dynamics, Biomedical Engineering Department, University of California, Irvine, California, USA;Cutrale, F., & Gratton, E.(2012, nov). Inclined selective plane illumination microscopy adaptor for conventional microscopes. Microsc. Res. Tech., 1461--1466, 10.1002/jemt.22089. Retrieved from: http://dx.doi.org/10.1002/jemt.22089;33.64535;-117.84264166667;star
Wenzel Carsten, Riefke Björn,...and Steigemann Patrick;Bayer Pharma AG, Global Drug Discovery, Germany;Wenzel, C., Riefke, B., & Gründemann, S. et al.(2014). {3D} high-content screening for the identification of compounds that target cells in dormant tumor spheroid regions. Exp. Cell Res., 131--143, Retrieved from: http://dx.doi.org/10.1016/j.yexcr.2014.01.017;51.133481;10.018343;star
Tomer Raju, Khairy Khaled,...and Keller Philipp J;Howard Hughes Medical Institute, Janelia Farm Research Campus, Ashburn, Virginia, USA;Tomer, R., Khairy, K., & Amat, F. et al.(2012, jul). Quantitative high-speed imaging of entire developing embryos with simultaneous multiview light-sheet microscopy. Nat. Methods, 755--763, Retrieved from: http://dx.doi.org/10.1038/nmeth.2062;39.0437;-77.4875;star
Lei Ming, Zumbusch Andreas;Department of Chemie, University of Konstanz, Germany;Lei, M., & Zumbusch, A.(2010). Structured light sheet fluorescence microscopy based on four beam interference. Opt. Express, 19232--19241, Retrieved from: http://dx.doi.org/10.1364/OE.18.019232;47.690215;9.1881;star
Truong Thai V, Supatto Willy,...and Fraser Scott E;California Institute of Technology, Beckman Institute, Pasadena, CA, USA;Truong, T., Supatto, W., & Koos, D. et al.(2011, sep). Deep and fast live imaging with two-photon scanned light-sheet microscopy. Nat. Methods, 757--760, Retrieved from: http://dx.doi.org/10.1038/nmeth.1652;34.138577;-118.125494;star
Zhao Ziqing W, Roy Rahul,...and Xie X Sunney;Department of Chemistry and Chemical Biology, Harvard University, Cambridge;Zhao, Z., Roy, R., & Gebhardt, J. et al.(2014). Spatial organization of {RNA} polymerase {II} inside a mammalian cell nucleus revealed by reflected light-sheet superresolution microscopy. Proc. Natl. Acad. Sci. U. S. A., 681--686, 10.1073/pnas.1318496111. Retrieved from: http://dx.doi.org/10.1073/pnas.1318496111;42.3751;-71.1056;star
Jährling Nina, Becker Klaus,...and Dodt Hans-Ulrich;Department of Bioelectronics, FKE, Vienna University of Technology Vienna, Austria;Jährling, N., Becker, K., & Schönbauer, C. et al.(2010). Three-dimensional reconstruction and segmentation of intact Drosophila by ultramicroscopy. Front. Syst. Neurosci., 1, 10.3389/neuro.06.001.2010. Retrieved from: http://dx.doi.org/10.3389/neuro.06.001.2010;48.198888888889;16.37;star
Costello John H, Colin Sean P,...and Kelly R;Eugene Bell Center, Marine Biological Laboratory, Woods Hole, USA;Costello, J., Colin, S., & Gemmell, B. et al.(2015). Multi-jet propulsion organized by clonal development in a colonial siphonophore. Nat. Commun., 8158, 10.1038/ncomms9158. Retrieved from: http://dx.doi.org/10.1038/ncomms9158;40.4776;-79.7589;star
Cavey Matthieu, Lecuit Thomas;IBDML, campus de Luminy, Marseille, France;Cavey, M., & Lecuit, T.(2008). Imaging cellular and molecular dynamics in live embryos using fluorescent proteins. Methods Mol. Biol., 219--238, Retrieved from: http://dx.doi.org/10.1007/978-1-59745-583-1_13;43.237163;5.435827;star
Fickentscher Rolf, Struntz Philipp, Weiss Matthias;Experimental Physics I, University of Bayreuth, Bayreuth, Germany;Fickentscher, R., Struntz, P., & Weiss, M.(2013). Mechanical cues in the early embryogenesis of Caenorhabditis elegans. Biophys. J., 1805--1811, 10.1016/j.bpj.2013.09.005. Retrieved from: http://dx.doi.org/10.1016/j.bpj.2013.09.005;49.928847;11.585897;star
Shaw P J, Agard D A,...and Sedat J W;Department of Cell Biology, John Innes Institute, Norwich, United Kingdom;Shaw, P., Agard, D., & Hiraoka, Y. et al.(1989, jan). Tilted view reconstruction in optical microscopy. Three-dimensional reconstruction of Drosophila melanogaster embryo nuclei. Biophys. J., 101--110, 10.1016/S0006-3495(89)82783-3. Retrieved from: http://dx.doi.org/10.1016/S0006-3495(89)82783-3;52.6286;1.2923;star
Silvestri L, Bria A,...and Pavone F S;European Laboratory for Non-Linear Spectroscopy (LENS), University of Florence, Italy;Silvestri, L., Bria, A., & Sacconi, L. et al.(2012). Confocal light sheet microscopy: micron-scale neuroanatomy of the entire mouse brain. Opt. Express, 20582--20598, Retrieved from: http://dx.doi.org/10.1364/OE.20.020582;43.846144;11.374478;star
Huisken Jan, Stainier Didier Y R;Department of Biochemistry and Biophysics, and Cardiovascular Research Institute, University of California, San Francisco, USA;Huisken, J., & Stainier, D.(2009, jun). Selective plane illumination microscopy techniques in developmental biology. Development, 1963--1975, 10.1242/dev.022426. Retrieved from: http://dx.doi.org/10.1242/dev.022426;33.98;-117.34;star
Skupsch Christoph, Brücker Christoph;Hubrecht Institute, KNAW and University Medical Center Utrecht, Cancer Genomics Netherlands, the Netherlands;Skupsch, C., & Brücker, C.(2014). Genome-wide {RNA} Tomography in the zebrafish embryo. Cell, 662--675, Retrieved from: http://dx.doi.org/10.1016/j.cell.2014.09.038;52.118063;5.152941;star
Gao Liang;Department of Chemistry, Stony Brook University, Stony Brook, NY, USA ;Gao, L.(2015). Optimization of the excitation light sheet in selective plane illumination microscopy. Biomed. Opt. Express, 881--890, 10.1364/BOE.6.000881. Retrieved from: http://dx.doi.org/10.1364/BOE.6.000881;40.914224;-73.11623;star
Chung Kwanghun, Deisseroth Karl;Department of Bioengineering, Stanford University, Stanford, California, USA;Chung, K., & Deisseroth, K.(2013, jun). {CLARITY} for mapping the nervous system. Nat. Methods, 508--513, Retrieved from: http://dx.doi.org/10.1038/nmeth.2481;37.43;-122.17;star
Wu Jianglai, Li Jianping, Chan Robert K Y;Department of Physics, Hong Kong Baptist University, Kowloon Tong, Hong Kong SAR, China;Wu, J., Li, J., & Chan, R.(2013). A light sheet based high throughput 3D-imaging flow cytometer for phytoplankton analysis. Opt. Express, 14474--14480, Retrieved from: http://dx.doi.org/10.1364/OE.21.014474;22.334124;114.18262;star
Voie Arne H;Spencer Technologies;Voie, A.(2002, sep). Imaging the intact guinea pig tympanic bulla by orthogonal-plane fluorescence optical sectioning microscopy. Hear. Res., 119--128, Retrieved from: http://www.ncbi.nlm.nih.gov/pubmed/12204356;43.1414;-95.1444;star
Alvers Ashley L, Ryan Sean,...and Bagnat Michel;Department of Cell Biology, Duke University Medical Center, Durham, USA;Alvers, A., Ryan, S., & Scherz, P. et al.(2014, mar). Single continuous lumen formation in the zebrafish gut is mediated by smoothened-dependent tissue remodeling. Development, 1110--1119, 10.1242/dev.100313. Retrieved from: http://dx.doi.org/10.1242/dev.100313;35.976246;-78.960612;star
Arrenberg Aristides B, Stainier Didier Y R,...and Huisken Jan;Department of Physiology, University of California, San Francisco, USA;Arrenberg, A., Stainier, D., & Baier, H. et al.(2010). Optogenetic control of cardiac function. Science, 971--974, Retrieved from: http://dx.doi.org/10.1126/science.1195929;37.883247;-122.306867;star
Holekamp Terrence F, Turaga Diwakar, Holy Timothy E;Department of Anatomy and Neurobiology, Washington University in St;Holekamp, T., Turaga, D., & Holy, T.(2008). Fast three-dimensional fluorescence imaging of activity in neural populations by objective-coupled planar illumination microscopy. Neuron, 661--672, Retrieved from: http://dx.doi.org/10.1016/j.neuron.2008.01.011;23.122237;77.475138;star
Luo Xueting, Salgueiro Yadira,...and Park Kevin K;Miami Project to Cure Paralysis, University of Miami, Miller School of Medicine, Miami, USA;Luo, X., Salgueiro, Y., & Beckerman, S. et al.(2013, sep). Three-dimensional evaluation of retinal ganglion cell axon regeneration and pathfinding in whole mouse tissue after injury. Exp. Neurol., 653--662, 10.1016/j.expneurol.2013.03.001. Retrieved from: http://dx.doi.org/10.1016/j.expneurol.2013.03.001;38.637693;-90.257041;star
Gebhardt J Christof M, Suter David M,...and Xie X Sunney;Department of Chemistry and Chemical Biology, Harvard University, Cambridge, Massachusetts, USA;Gebhardt, J., Suter, D., & Roy, R. et al.(2013, may). Single-molecule imaging of transcription factor binding to {DNA} in live mammalian cells. Nat. Methods, 421--426, 10.1038/nmeth.2411. Retrieved from: http://dx.doi.org/10.1038/nmeth.2411;42.3751;-71.1056;star
Yang Zhengyi, Piksarv Peeter,...and Dholakia Kishan;SUPA, School of Physics and Astronomy, University of St;Yang, Z., Piksarv, P., & Ferrier, D. et al.(2015). Macro-optical trapping for sample confinement in light sheet microscopy. Biomed. Opt. Express, 2778--2785, 10.1364/BOE.6.002778. Retrieved from: http://dx.doi.org/10.1364/BOE.6.002778;53.464108;-2.231489;star
Voie A H, Spelman F A;Center for Bioengineering, University of Washington, USA;Voie, A., & Spelman, F.(1995, sep). Three-dimensional reconstruction of the cochlea from two-dimensional images of optical sections. Comput. Med. Imaging Graph., 377--384, Retrieved from: http://www.ncbi.nlm.nih.gov/pubmed/8734775;31.7955;-94.1791;star
Höckendorf Burkhard, Lavis Luke D, Keller Philipp J;Janelia Research Campus, Howard Hughes Medical Institute, Ashburn, Virginia, USA;Höckendorf, B., Lavis, L., & Keller, P.(2014, nov). Making biology transparent. Nat. Biotechnol., 1104--1105, Retrieved from: http://dx.doi.org/10.1038/nbt.3061;39.0437;-77.4875;star
Taylor Jonathan M, Saunter Christopher D,...and Chaudhry Bill;Durham University, Centre for Advanced Instrumentation, Department of Physics, Durham, United Kingdom;Taylor, J., Saunter, C., & Love, G. et al.(2011, nov). Real-time optical gating for three-dimensional beating heart imaging. J. Biomed. Opt., 116021, Retrieved from: http://dx.doi.org/10.1117/1.3652892;54.78333;-1.56667;star
Scherf Nico, Huisken Jan; Dresden, Germany;Scherf, N., & Huisken, J.(2015, aug). The smart and gentle microscope. Nat. Biotechnol., 815--818, Retrieved from: http://dx.doi.org/10.1038/nbt.3310;51.03333;13.73333;star
Scherf Nico, Huisken Jan;University of Toulouse, Toulouse, France;Scherf, N., & Huisken, J.(2012). Deep and clear optical imaging of thick inhomogeneous samples. PLoS One, e35795, 10.1371/journal.pone.0035795. Retrieved from: http://dx.doi.org/10.1371/journal.pone.0035795;43.604444444444;1.4436111111111;star
Vladimirov Nikita, Mu Yu,...and Ahrens Misha B;Janelia Farm Research Campus, Howard Hughes Medical Institute, Ashburn, Virginia, USA;Vladimirov, N., Mu, Y., & Kawashima, T. et al.(2014, sep). Light-sheet functional imaging in fictively behaving zebrafish. Nat. Methods, 883--884, Retrieved from: http://dx.doi.org/10.1038/nmeth.3040;39.0437;-77.4875;star
Samsonov D, Elsaesser A,...and Morfill G E;Department of Electrical Engineering and Electronics, University of Liverpool, Brownlow Hill, United Kingdom;Samsonov, D., Elsaesser, A., & Edwards, A. et al.(2008, mar). High speed laser tomography system. Rev. Sci. Instrum., 035102, Retrieved from: http://dx.doi.org/10.1063/1.2885683;53.406;-2.967;star
Chhetri Raghav K, Amat Fernand...and Keller Philipp J;Howard Hughes Medical Institute, Janelia Research Campus, Ashburn, Virginia, USA;Chhetri, R., Amat, F., & Wan, Y. et al.(2015, dec). Whole-animal functional and developmental imaging with isotropic spatial resolution. Nat. Methods, 1171--1178, Retrieved from: http://dx.doi.org/10.1038/nmeth.3632;39.0437;-77.4875;star
Krieger Jan W, Singh Anand...and Thorsten;German Cancer Research Center (DKFZ), Heidelberg, Germany;Krieger, J., Singh, A., & Bag, N. et al.(2015, dec). Imaging fluorescence (cross-) correlation spectroscopy in live cells and organisms. Nat. Protoc., 1948--1974, Retrieved from: http://dx.doi.org/10.1038/nprot.2015.100;49.41416667;8.6725;star
Engelbrecht Christoph J, Johnston Richard S,...and Helmchen Fritjof;Dept;Engelbrecht, C., Johnston, R., & Seibel, E. et al.(2008). Ultra-compact fiber-optic two-photon microscope for functional fluorescence imaging in vivo. 5556--5564, Retrieved from: http://www.ncbi.nlm.nih.gov/pubmed/18542658;39.8272;-75.1236;star
Munson Chantilly, Huisken Jan,...and Stainier Didier Y R;Department of Biochemistry and Biophysics, Genetics and Human Genetics, University of California, San Francisco, USA;Munson, C., Huisken, J., & Bit-Avragim, N. et al.(2008). Regulation of neurocoel morphogenesis by Pard6 gamma b. Dev. Biol., 41--54, 10.1016/j.ydbio.2008.08.033. Retrieved from: http://dx.doi.org/10.1016/j.ydbio.2008.08.033;37.229564;-120.047533;star
Santi Peter A, Johnson Shane B,...and Leger James R;Department of Otolaryngology, University of Minnesota, Minneapolis, MN, USA;Santi, P., Johnson, S., & Hillenbrand, M. et al.(2009, apr). Thin-sheet laser imaging microscopy for optical sectioning of thick tissues. Biotechniques, 287--294, 10.2144/000113087. Retrieved from: http://dx.doi.org/10.2144/000113087;44.975277777778;-93.234166666667;star
Müllenbroich M Caroline, Silvestri Ludovico,...and Pavone Francesco S;University of Florence , European Laboratory for Non-Linear Spectroscopy, Italy ;Müllenbroich, M., Silvestri, L., & Onofri, L. et al.(2015, oct). Comprehensive optical and data management infrastructure for high-throughput light-sheet microscopy of whole mouse brains. Neurophotonics, 041404, 10.1117/1.NPh.2.4.041404. Retrieved from: http://dx.doi.org/10.1117/1.NPh.2.4.041404;43.846144;11.374478;star
Santi Peter A;Department of Otolaryngology, University of Minnesota, USA;Santi, P.(2011, feb). Light sheet fluorescence microscopy: a review. J. Histochem. Cytochem., 129--138, 10.1369/0022155410394857. Retrieved from: http://dx.doi.org/10.1369/0022155410394857;44.975277777778;-93.234166666667;star
Laksameethanasan Danai, Brand...and Shorte Spencer L;Laboratory of Computational Engineering, Helsinki University of Technology, Finland;Laksameethanasan, D., Brandt, S., & Engelhardt, P. et al.(2008, feb). A Bayesian reconstruction method for micro-rotation imaging in light microscopy. Microsc. Res. Tech., 158--167, Retrieved from: http://dx.doi.org/10.1002/jemt.20550;60.17333;24.94861;star
Gao Liang, Shao Lin,...and Betzig Eric; Howard Hughes Medical Institute (HHMI), Ashburn, Virginia, USA;Gao, L., Shao, L., & Chen, B. et al.(2014, may). {3D} live fluorescence imaging of cellular dynamics using Bessel beam plane illumination microscopy. Nat. Protoc., 1083--1101, Retrieved from: http://dx.doi.org/10.1038/nprot.2014.087;39.0437;-77.4875;star
Leischner Ulrich, Zieglgänsberger Walter, Dodt Hans-Ulrich;Max Planck Institute of Psychiatry, Munich, Germany;Leischner, U., Zieglgänsberger, W., & Dodt, H.(2009). Resolution of ultramicroscopy and field of view analysis. PLoS One, e5785, 10.1371/journal.pone.0005785. Retrieved from: http://dx.doi.org/10.1371/journal.pone.0005785;48.1399;11.4701;star
Liu Jiandong,...and Stainier Didier Y R;Department of Biochemistry and Biophysics, University of California, San Francisco, USA;Liu, J., Bressan, M., & Hassel, D. et al.(2010, nov). A dual role for {ErbB2} signaling in cardiac trabeculation. Development, 3867--3875, 10.1242/dev.053736. Retrieved from: http://dx.doi.org/10.1242/dev.053736;37.883247;-122.306867;star
Hu Ying S, Zimmerley Maxwell,...and Cang Hu;Waitt Advanced Biophotonics Center, Salk Institute for Biological Studies;Hu, Y., Zimmerley, M., & Li, Y. et al.(2014). Single-molecule super-resolution light-sheet microscopy. Chemphyschem, 577--586, Retrieved from: http://dx.doi.org/10.1002/cphc.201300732;32.887151;-117.246212;star
